City Name,Country Code,Lat,Lon
rikitea,pf,-54.79,-119.58
navirai,br,-23.09,-54.53
petropavlovsk-kamchatskiy,ru,47.42,164.25
barrow,us,84.39,-164.15
oksfjord,no,73.37,21.85
georgetown,sh,-0.46,-21.48
hilo,us,16.78,-148.0
bambous virieux,mu,-37.63,78.87
punta arenas,cl,-86.28,-116.35
pavia,it,45.11,9.06
hithadhoo,mv,-4.69,76.77
paamiut,gl,65.0,-48.63
kapaa,us,28.2,-158.31
mataura,pf,-53.79,-155.98
aklavik,ca,66.17,-134.53
sao joao da barra,br,-23.33,-37.12
chokurdakh,ru,88.47,149.1
cape town,za,-79.66,-9.9
tasiilaq,gl,57.2,-36.78
bredasdorp,za,-38.29,21.13
mahebourg,mu,-49.51,75.23
florence,us,34.88,-87.53
sao filipe,cv,11.57,-30.11
manyana,bw,-23.45,21.8
taolanaro,mg,-35.49,51.19
gazli,uz,42.7,63.73
vao,nc,-25.81,174.5
yashkul,ru,46.69,45.25
norman wells,ca,63.82,-128.39
yerbogachen,ru,65.9,106.47
nizhneyansk,ru,78.99,134.61
khatanga,ru,78.62,101.66
cidreira,br,-53.18,-28.24
haines junction,ca,62.67,-139.12
tarakan,id,2.56,117.14
hermanus,za,-82.72,12.54
illoqqortoormiut,gl,77.78,-17.02
matamoros,mx,25.21,-93.77
khani,ru,58.28,121.12
culipapa,ph,9.3,122.36
busselton,au,-58.24,97.23
halasztelek,hu,47.35,18.99
saint-philippe,re,-42.1,60.11
tsihombe,mg,-47.27,49.07
cabo san lucas,mx,12.15,-122.42
kumasi,gh,6.63,-1.53
tabou,ci,-2.86,-5.74
puerto ayora,ec,0.8,-91.46
yellowknife,ca,72.17,-111.78
ushuaia,ar,-69.91,-59.14
fortuna,us,38.06,-127.53
port elizabeth,za,-63.38,33.45
sitka,us,51.79,-137.95
ranot,th,7.95,100.41
yar-sale,ru,76.95,70.44
chuy,uy,-43.18,-45.45
saskylakh,ru,71.8,116.95
jamestown,sh,-14.07,-0.46
ribeira grande,pt,39.27,-41.85
thompson,ca,70.82,-88.76
albany,au,-88.14,92.16
castro,cl,-42.94,-74.91
ibra,om,22.35,58.24
raga,sd,8.63,24.68
mahadday weyne,so,3.16,47.18
punta alta,ar,-39.0,-61.14
san antonio,cl,-33.29,-73.26
jerantut,my,4.21,102.53
halalo,wf,-14.49,-176.91
vardo,no,86.4,36.06
abeche,td,14.16,20.31
provideniya,ru,53.64,-176.09
zwedru,lr,5.28,-8.06
nadvoitsy,ru,63.88,34.03
cocula,mx,18.19,-99.7
iqaluit,ca,56.75,-69.74
ilinsko-podomskoye,ru,60.76,48.39
yalta,ua,46.67,37.1
arraial do cabo,br,-48.37,-26.88
portland,au,-51.97,134.46
adrar,dz,26.62,3.18
nanortalik,gl,51.14,-38.08
new norfolk,au,-54.67,133.17
pacureti,ro,45.13,26.14
atuona,pf,-8.59,-145.8
carutapera,br,-0.08,-45.51
nikolskoye,ru,31.03,177.86
butaritari,ki,26.61,167.84
upernavik,gl,87.2,-50.73
tiksi,ru,79.71,129.97
kaitangata,nz,-55.56,174.12
moose factory,ca,50.3,-80.26
soltsy,ru,57.96,30.4
murdochville,ca,49.53,-65.14
bentiu,sd,8.95,30.52
stratford-upon-avon,gb,52.18,-1.61
hamilton,bm,29.14,-67.71
sikeston,us,36.66,-89.76
hambantota,lk,0.87,84.62
dikson,ru,75.42,81.03
janesville,us,42.62,-89.16
belushya guba,ru,84.9,51.44
tambopata,pe,-13.4,-68.7
zabaykalsk,ru,47.44,115.89
north bend,us,43.4,-129.76
ormara,pk,23.23,64.62
tuktoyaktuk,ca,78.62,-138.17
trenggalek,id,-9.71,111.06
tumannyy,ru,76.31,39.11
nome,us,62.44,-167.5
port alfred,za,-84.61,49.41
codrington,ag,22.4,-51.64
schmallenberg,de,51.12,8.37
kassala,sd,15.26,35.16
bluff,nz,-63.46,172.73
kodiak,us,41.15,-159.69
porto novo,cv,13.62,-39.72
hegang,cn,47.31,130.42
arlit,ne,20.53,8.68
zhangye,cn,39.1,99.59
asekeyevo,ru,53.14,52.86
kiama,au,-34.64,151.31
saldanha,za,-42.73,-5.46
veghel,nl,51.62,5.52
abnub,eg,25.76,26.92
waitara,nz,-38.41,173.79
itoman,jp,24.44,128.57
nicolas bravo,mx,18.05,-88.97
college,us,71.17,-147.19
lagoa,pt,49.02,-33.79
lorengau,pg,-0.08,147.26
jalu,ly,29.26,22.61
rognan,no,65.38,17.03
boa vista,br,4.19,-64.06
himare,al,40.21,19.72
chapais,ca,55.32,-74.66
san patricio,mx,17.01,-108.12
kununurra,au,-15.11,125.26
amalapuram,in,14.45,83.19
derzhavinsk,kz,49.8,64.04
kavieng,pg,8.91,155.94
usinsk,ru,69.11,57.35
hasaki,jp,30.34,155.03
dubbo,au,-32.54,148.44
arona,es,26.54,-17.31
bayonne,fr,43.15,-1.15
kenai,us,64.61,-153.83
russell,nz,-30.18,177.93
avarua,ck,-75.61,-166.25
qaanaaq,gl,89.47,-72.52
alofi,nu,-26.34,-166.96
oum hadjer,td,13.28,19.64
jatai,br,-17.57,-51.9
bage,br,-31.49,-54.07
otradnoye,ru,44.19,146.45
sao francisco de assis,br,-29.44,-55.02
vaini,to,-53.34,-169.59
velyka oleksandrivka,ua,47.17,33.25
degtyarsk,ru,56.77,60.02
harper,lr,-0.66,-9.61
kyra,ru,49.81,111.12
dunedin,nz,-49.81,172.99
san jeronimo,mx,15.98,-100.89
sentyabrskiy,ru,36.78,159.92
kavarna,bg,43.11,28.43
oussouye,sn,11.42,-19.56
hobart,au,-44.37,147.8
half moon bay,us,30.13,-139.29
hornepayne,ca,51.04,-84.99
srednekolymsk,ru,72.57,153.75
ancud,cl,-41.7,-102.65
katsuura,jp,29.56,142.12
vila franca do campo,pt,41.27,-21.09
maumere,id,-7.45,121.67
camacari,br,-13.58,-36.51
rio verde de mato grosso,br,-18.99,-54.9
poya,nc,-26.71,161.1
caravelas,br,-18.86,-37.13
carmen,ph,7.25,124.82
ibadan,ng,7.35,3.66
beringovskiy,ru,54.09,175.72
qidong,cn,27.19,112.26
bitam,ga,2.42,11.79
creel,mx,27.45,-107.66
tuatapere,nz,-50.96,163.48
lomovka,ru,53.75,58.39
nadym,ru,65.36,71.42
east london,za,-60.49,48.38
isangel,vu,-17.29,172.58
naze,jp,22.04,137.56
souillac,mu,-52.88,76.63
farrukhnagar,in,17.03,78.11
mar del plata,ar,-45.92,-52.72
barentsburg,sj,86.19,9.61
dhidhdhoo,mv,7.36,73.4
bengkulu,id,-15.32,95.77
wheeling,us,40.07,-80.75
pevek,ru,88.94,165.15
salalah,om,17.05,52.1
francistown,bw,-21.2,27.28
campbell river,ca,51.97,-125.69
freeport,us,28.74,-95.63
linshu,cn,34.8,118.66
coahuayana,mx,16.52,-105.1
severo-kurilsk,ru,45.79,160.46
colac,au,-40.05,143.81
ozgon,kg,40.97,73.19
tonneins,fr,44.13,0.23
shizunai,jp,42.38,142.17
port lincoln,au,-42.85,133.45
rochelle,us,41.86,-89.2
kouroussa,gn,10.6,-10.07
bayan,kw,28.23,47.81
islamkot,pk,24.77,70.32
huarmey,pe,-11.43,-80.98
amderma,ru,69.28,59.51
goderich,sl,8.15,-15.04
luderitz,na,-26.86,9.56
san rafael del sur,ni,10.65,-87.19
luang prabang,la,19.37,102.28
rajapur,in,25.42,81.06
kaniama,cd,-8.74,22.78
thunder bay,ca,47.1,-89.57
la ronge,ca,58.85,-103.84
bud,no,68.56,4.76
aflu,dz,33.13,3.04
iquique,cl,-20.85,-69.41
najran,sa,20.41,45.34
khorinsk,ru,52.5,108.99
tanjong karang,my,3.28,101.06
sisimiut,gl,67.06,-58.7
usogorsk,ru,64.45,48.39
ituni,gy,4.5,-58.19
misratah,ly,34.15,16.66
sola,vu,-12.98,169.27
grindavik,is,58.31,-27.2
santa rosa,ar,-37.17,-65.84
victoria,sc,-8.78,53.85
ocumare del tuy,ve,9.78,-66.93
torbay,ca,35.14,-47.6
the valley,ai,22.56,-62.55
asfi,ma,32.6,-10.27
port hedland,au,-16.69,117.0
coihueco,cl,-37.14,-70.24
labuhan,id,-16.23,96.77
parangan,ph,5.26,119.68
maues,br,-4.14,-57.2
samusu,ws,-13.07,-166.31
kloulklubed,pw,5.31,135.73
porto-vecchio,fr,41.92,9.71
prince rupert,ca,51.17,-133.15
carnarvon,au,-27.33,90.63
broken hill,au,-30.45,142.9
boksitogorsk,ru,59.86,33.86
zyryanka,ru,65.56,149.81
eirunepe,br,-5.72,-70.74
umzimvubu,za,-36.26,33.66
yanan,cn,36.26,110.01
rawlins,us,41.53,-108.14
beira,mz,-19.57,35.71
wawa,ca,47.1,-85.74
beloha,mg,-30.96,41.13
alcacer do sal,pt,38.42,-8.69
rawson,ar,-49.03,-58.15
chittaurgarh,in,24.82,74.52
sisophon,kh,13.68,103.14
bichura,ru,49.92,107.7
urucara,br,-1.87,-58.45
talnakh,ru,75.45,87.67
kuusamo,fi,66.25,28.98
paita,pe,-7.19,-84.44
cacapava,br,-22.98,-45.78
north myrtle beach,us,32.34,-77.47
chagda,ru,59.84,129.76
esperance,au,-37.34,123.62
senanga,zm,-16.02,23.19
corowa,au,-36.03,146.2
bonthe,sl,0.53,-18.73
barawe,so,0.92,43.88
mys shmidta,ru,84.66,-178.4
cherskiy,ru,80.79,162.48
kollumerland,nl,54.63,5.66
beyneu,kz,44.72,56.17
riyadh,sa,26.87,47.03
utiroa,ki,-3.98,170.54
krasnoselkup,ru,63.59,81.24
arman,ru,55.26,148.19
ewa beach,us,18.84,-158.77
ilulissat,gl,87.71,-40.7
saint-raymond,ca,47.05,-71.63
yokadouma,cm,3.76,14.56
hobyo,so,2.72,51.09
cartagena,co,10.83,-76.26
marienburg,sr,10.65,-54.21
grand gaube,mu,-11.23,64.65
bandarbeyla,so,6.56,57.02
hue,vn,15.97,107.18
airai,pw,6.49,143.67
la asuncion,ve,14.07,-65.37
navahrudak,by,53.16,26.03
clarksville,us,38.52,-85.7
ambon,id,-4.31,125.7
cap malheureux,mu,-15.27,59.45
barra do garcas,br,-15.52,-52.85
geraldton,au,-29.78,114.28
vaitape,pf,-16.82,-156.3
saint-georges,gf,6.05,-47.7
bull savanna,jm,16.29,-78.57
richards bay,za,-30.07,36.12
sorvag,fo,60.83,-11.54
valdivia,cl,-40.12,-75.46
taltal,cl,-24.7,-79.62
ust-kamchatsk,ru,54.96,161.92
kabwe,zm,-14.14,28.21
algiers,dz,36.84,2.69
te anau,nz,-44.65,162.72
mareeba,au,-15.54,143.39
narsaq,gl,87.18,-63.87
kerman,ir,30.42,58.13
lasa,cn,32.15,89.88
north platte,us,40.33,-100.88
constitucion,mx,19.52,-120.83
velsk,ru,61.69,42.17
noumea,nc,-25.65,164.54
san cristobal,ec,-6.8,-90.37
cumaribo,co,3.52,-70.68
pisco,pe,-22.35,-95.28
pancas,br,-19.35,-40.78
aksarka,ru,66.56,67.61
norsup,vu,-17.15,164.73
seoul,kr,37.71,129.51
skalistyy,ru,73.78,34.51
los llanos de aridane,es,30.99,-21.22
maracas,br,-13.84,-40.76
karratha,au,-21.15,115.87
bhaderwah,in,32.88,75.56
berdigestyakh,ru,61.11,126.84
shuangcheng,cn,45.19,126.03
honningsvag,no,77.05,26.73
macusani,pe,-13.85,-69.98
ilinskiy,ru,61.09,32.51
saleaula,ws,5.63,-172.29
lata,sb,-3.54,167.09
longyearbyen,sj,77.49,20.45
altamira,br,-3.1,-52.24
camacha,pt,37.63,-17.3
kalabo,zm,-15.71,20.95
neyvo-shaytanskiy,ru,57.82,61.15
oranjemund,na,-28.32,14.73
alamos,mx,27.18,-109.12
garowe,so,8.04,48.7
hachioji,jp,35.61,139.24
yulara,au,-26.33,125.05
banda aceh,id,3.47,91.1
lompoc,us,19.93,-132.41
formoso do araguaia,br,-11.65,-50.03
changping,cn,40.85,116.03
olafsvik,is,65.05,-23.79
vila velha,br,-25.37,-24.72
kuytun,ru,54.68,101.63
dzhusaly,kz,45.91,65.06
oskemen,kz,49.07,82.13
pundaguitan,ph,4.42,128.3
yanam,in,15.85,83.01
danilovka,ru,50.46,43.67
tulsipur,np,28.19,82.7
srandakan,id,-15.79,107.47
bridgton,us,44.24,-70.86
bubaque,gw,4.59,-20.98
makakilo city,us,5.39,-167.75
mayor pablo lagerenza,py,-20.85,-61.61
vaitupu,wf,6.36,-175.86
kinkala,cg,-4.47,14.14
zhanjiang,cn,21.14,110.08
rabo de peixe,pt,38.3,-25.25
lavrentiya,ru,63.87,-170.72
nalut,ly,32.25,10.76
palabuhanratu,id,-18.82,101.83
kiunga,pg,-5.21,141.49
solnechnyy,ru,58.41,137.33
luganville,vu,-15.92,164.27
shimanovsk,ru,51.36,126.78
yanggu,cn,36.06,115.87
charyshskoye,ru,51.4,83.6
macaboboni,ph,16.28,118.96
iwanai,jp,44.1,138.63
maltahohe,na,-25.0,16.77
talara,pe,-6.22,-86.04
lismore,au,-28.76,153.28
disraeli,ca,45.75,-71.41
senhor do bonfim,br,-10.51,-40.01
warrington,us,27.6,-86.96
coquimbo,cl,-28.84,-76.62
peace river,ca,56.66,-117.1
te horo,nz,-40.47,174.54
anaco,ve,9.32,-64.48
tyrma,ru,50.59,131.78
mackay,au,-18.26,154.61
novyy urengoy,ru,69.29,75.78
san andres,co,12.7,-79.13
antofagasta,cl,-23.78,-71.21
tulun,ru,53.54,100.54
cayenne,gf,10.92,-48.34
mandalgovi,mn,46.31,104.48
nioro,ml,16.71,-10.37
mapiri,bo,-14.34,-68.97
tahe,cn,51.32,125.06
havelian,pk,34.02,73.24
verkhnyaya inta,ru,66.71,61.65
taunggyi,mm,21.45,96.89
naryshkino,ru,52.87,35.69
anadyr,ru,62.45,175.77
mardin,tr,36.69,40.46
pitkyaranta,ru,61.06,31.2
itzehoe,de,53.86,9.58
coihaique,cl,-46.92,-70.31
ta khmau,kh,11.35,105.19
ponta delgada,pt,34.49,-27.66
hualmay,pe,-11.27,-77.93
talcahuano,cl,-32.1,-80.9
piryetos,gr,40.04,22.79
kadoma,zw,-18.22,29.22
laizhou,cn,37.05,119.75
muana,br,-1.02,-49.46
thayetmyo,mm,19.13,95.11
morondava,mg,-18.95,42.65
luanda,ao,-9.1,8.91
clyde river,ca,67.98,-67.66
aloleng,ph,15.76,115.84
sambava,mg,-12.09,53.32
rio gallegos,ar,-50.09,-68.33
palana,ru,60.48,159.51
henties bay,na,-24.46,4.67
dawlatabad,af,37.17,64.63
teacapan,mx,22.08,-106.6
sakaiminato,jp,35.85,132.96
ossora,ru,57.88,164.36
ahipara,nz,-35.05,165.28
darhan,mn,44.43,109.41
rungata,ki,1.38,178.11
kaeo,nz,-26.81,177.56
bathsheba,bb,18.52,-45.79
meulaboh,id,0.37,92.43
ayagoz,kz,48.12,80.82
lazarev,ru,52.77,142.08
valparaiso,cl,-30.98,-78.58
sangar,ru,63.05,128.18
kaihua,cn,23.4,104.63
taoudenni,ml,22.54,-7.86
kutum,sd,20.7,25.47
razole,in,14.76,82.63
gravdal,no,73.26,11.17
santa lucia,es,26.57,-15.8
coaticook,ca,45.17,-71.63
guerrero negro,mx,13.62,-131.1
jiddah,sa,21.39,38.94
mount gambier,au,-42.11,137.09
dombarovskiy,ru,50.55,59.14
leh,in,34.26,80.52
hohhot,cn,39.95,111.61
tilichiki,ru,60.55,170.88
vanersborg,se,58.53,12.47
norfolk,us,41.94,-97.85
palmer,us,61.28,-146.03
klaksvik,fo,66.61,-3.24
jesup,us,31.3,-81.9
carroll,us,41.96,-95.02
damietta,eg,32.89,31.59
puri,in,18.73,86.37
tikapur,np,28.47,81.08
rovaniemi,fi,65.87,26.63
shelburne,ca,40.48,-64.15
monrovia,lr,5.23,-10.99
santarem,br,-3.53,-54.71
senneterre,ca,47.35,-77.17
waipawa,nz,-41.84,176.98
arkhangelsk,ru,65.75,40.54
plainview,us,34.4,-101.18
buchanan,lr,5.15,-9.82
namibe,ao,-17.53,6.35
novo aripuana,br,-5.79,-59.82
karamken,ru,60.02,151.68
sinkat,sd,21.37,35.44
jizan,sa,16.51,41.44
erenhot,cn,44.26,109.77
phrai bung,th,13.71,104.35
linxia,cn,34.99,101.87
bosaso,so,10.67,49.13
grand river south east,mu,-27.71,82.92
san quintin,mx,30.06,-116.24
puerto del rosario,es,25.75,-11.76
high rock,bs,27.25,-78.07
ayorou,ne,14.67,0.41
trincomalee,lk,9.03,81.75
maykain,kz,50.8,75.54
vestmannaeyjar,is,63.19,-20.48
bambamarca,pe,-6.64,-78.34
miramar,mx,22.4,-96.66
san felipe,ve,10.46,-69.0
yuanping,cn,38.7,111.75
bumba,cd,1.5,22.55
wanning,cn,17.05,111.11
victor harbor,au,-36.92,137.75
buqayq,sa,26.11,49.17
nouadhibou,mr,22.63,-15.52
rurrenabaque,bo,-14.22,-67.82
lake city,us,29.81,-83.2
moba,cd,-6.91,29.35
pangnirtung,ca,67.67,-65.65
oistins,bb,11.91,-53.82
kamenskoye,ru,64.81,164.36
balaipungut,id,0.32,101.85
san ramon,bo,-13.54,-65.76
eskasem,af,37.1,72.83
ixtapa,mx,9.83,-105.39
high prairie,ca,55.38,-116.2
puerto escondido,mx,9.12,-99.22
vanderhoof,ca,53.31,-124.33
xining,cn,35.5,100.22
senmonorom,kh,12.47,107.27
bethel,us,50.72,-162.61
codajas,br,-3.83,-62.15
saint george,bm,30.89,-58.36
sinnamary,gf,9.02,-51.46
shakawe,bw,-18.74,22.18
calama,cl,-24.15,-67.69
gaozhou,cn,22.15,110.6
kangalassy,ru,62.37,130.45
pastos bons,br,-7.12,-43.8
okha,ru,55.62,143.8
naryan-mar,ru,67.49,52.26
namatanai,pg,2.1,158.79
de-kastri,ru,50.91,141.18
helena,us,47.5,-112.48
union,py,-24.76,-56.46
zhigansk,ru,68.5,123.58
yelizovo,ru,53.71,158.41
port keats,au,-13.22,126.86
casablanca,ma,35.12,-8.52
woodstock,ca,46.43,-67.11
hunza,pk,37.99,74.08
eldikan,ru,60.27,135.32
kahului,us,32.28,-152.07
margate,za,-39.89,39.51
northam,au,-28.61,118.02
meiktila,mm,20.6,95.77
nchelenge,zm,-9.22,28.29
moree,au,-28.96,150.52
sokoto,ng,12.62,4.9
lebu,cl,-38.51,-97.81
udachnyy,ru,66.85,115.81
eureka,us,40.74,-129.3
kerema,pg,-7.91,144.52
asau,tv,-11.32,177.9
brae,gb,63.16,-3.14
koslan,ru,63.97,49.24
xuanzhou,cn,30.65,119.09
bajo baudo,co,4.77,-77.96
hami,cn,42.65,93.25
saint anthony,ca,55.06,-52.67
tevriz,ru,57.46,73.05
artyk,ru,65.39,144.82
santiago,ph,7.08,130.3
iquitos,pe,-3.0,-73.39
inuvik,ca,67.14,-131.6
svetlogorsk,ru,67.34,93.97
shubarshi,kz,47.07,57.23
alice springs,au,-21.5,136.13
dawei,mm,13.35,98.4
gat,ly,25.12,9.37
ust-tsilma,ru,67.58,49.54
flin flon,ca,62.81,-102.29
port arthur,us,28.86,-93.1
kokopo,pg,-4.62,151.63
mufulira,zm,-12.34,28.42
husavik,is,70.34,-14.73
fort nelson,ca,57.8,-121.49
ponta do sol,cv,25.2,-37.74
sioux lookout,ca,56.36,-91.45
buala,sb,-1.99,161.85
zheleznodorozhnyy,ru,57.26,102.26
manta,ec,0.51,-85.02
ust-nera,ru,63.91,142.56
lagos,ng,5.26,3.66
padang,id,-7.99,92.2
paragominas,br,-3.92,-47.62
agadir,ma,31.34,-11.74
bay roberts,ca,46.72,-53.1
jiuquan,cn,40.94,100.03
mindif,cm,10.33,14.77
opuwo,na,-20.67,6.55
sept-iles,ca,51.69,-65.15
faanui,pf,-6.86,-152.26
kangaatsiaq,gl,68.72,-56.77
weihe,cn,44.36,128.64
byron bay,au,-27.75,160.39
sibsagar,in,26.99,94.41
vestmanna,fo,68.78,-8.34
altay,cn,45.84,90.47
liepaja,lv,56.54,20.51
mayumba,ga,-6.17,8.79
plettenberg bay,za,-47.16,23.69
elverum,no,61.41,12.03
churapcha,ru,62.51,132.68
caala,ao,-13.14,15.66
hihifo,to,-14.75,-174.8
bereznik,ru,62.47,42.39
payson,us,33.85,-111.05
saint-francois,gp,21.38,-49.81
turukhansk,ru,62.83,85.8
borogontsy,ru,64.76,132.8
kuche,cn,39.56,84.06
tingrela,ci,10.11,-6.3
constantine,dz,35.66,6.18
pokrovsk,ru,61.36,129.65
joaquim gomes,br,-9.11,-35.77
clarence town,bs,23.84,-75.64
beidao,cn,35.02,105.69
kidal,ml,17.53,0.74
himora,et,14.38,37.28
newton,us,38.16,-97.48
sedelnikovo,ru,57.37,75.05
orizatlan,mx,21.09,-98.63
nzega,tz,-4.62,33.07
boromo,bf,11.46,-2.61
la gaulette,mu,-20.78,56.64
pathein,mm,16.52,94.3
olinda,br,-9.63,-30.42
gorontalo,id,1.77,121.99
hofn,is,64.39,-11.07
balad,iq,33.88,43.73
belmonte,br,-16.51,-31.35
poum,nc,-19.68,157.78
nouakchott,mr,18.9,-15.94
kazalinsk,kz,46.52,60.08
bardiyah,ly,31.25,24.48
kushima,jp,29.27,133.35
bloomingdale,us,27.8,-82.25
attawapiskat,ca,59.72,-82.59
voicesti,ro,44.59,24.29
bida,ng,9.76,5.88
copalillo,mx,18.17,-99.01
helong,cn,42.54,128.73
fairbanks,us,71.99,-143.71
libreville,ga,0.47,8.26
mehamn,no,77.99,27.39
aguas formosas,br,-16.87,-40.66
sanawad,in,22.27,76.31
vanavara,ru,61.5,101.44
saint-augustin,ca,50.57,-59.98
pitimbu,br,-7.69,-25.43
serenje,zm,-12.71,30.59
leshukonskoye,ru,68.03,48.04
ushtobe,kz,47.32,77.24
hervey bay,au,-23.11,158.22
lolua,tv,-6.77,172.06
oliveira dos brejinhos,br,-12.39,-42.62
victoria falls,zw,-17.98,25.88
mabaruma,gy,10.27,-58.44
charters towers,au,-21.42,145.56
carupano,ve,10.68,-63.24
dudinka,ru,71.04,86.4
muros,es,41.95,-12.22
sao jose da coroa grande,br,-10.41,-30.42
san francisco de macoris,do,19.33,-70.3
tamazulapam,mx,17.57,-97.63
bluefields,ni,11.27,-83.4
weifang,cn,36.74,118.93
bafq,ir,31.78,54.93
aleksandrov gay,ru,48.89,48.23
nanakuli,us,15.47,-161.98
zaysan,kz,47.76,86.04
port-gentil,ga,-4.69,1.42
sibolga,id,0.72,96.31
katobu,id,-6.21,122.21
panaba,mx,21.95,-88.1
san policarpo,ph,12.45,128.53
athabasca,ca,55.95,-113.4
neyshabur,ir,35.85,58.54
port blair,in,11.54,89.13
dingle,ie,51.96,-14.61
atasu,kz,47.97,73.1
praia,cv,13.25,-22.35
imbituba,br,-28.18,-47.32
kirakira,sb,-9.71,162.27
pereleshino,ru,51.75,40.11
cairns,au,-15.78,148.32
pampa,us,35.5,-100.88
sorland,no,72.61,10.31
ingleside,us,27.85,-97.24
wamba,cd,2.04,28.53
langham,ca,53.06,-107.19
scarborough,gb,54.96,-0.19
tura,ru,67.32,97.41
san jose,gt,10.79,-92.4
yaan,cn,29.81,101.19
rock springs,us,41.74,-108.52
comodoro rivadavia,ar,-45.29,-66.47
poronaysk,ru,49.07,145.71
korla,cn,38.2,88.63
sarkand,kz,46.4,79.41
flinders,au,-34.87,129.01
digha,in,21.64,87.43
kavaratti,in,12.53,69.8
kismayo,so,-2.13,44.9
boyolangu,id,-15.27,110.87
kogon,uz,39.3,64.63
minas,uy,-34.48,-55.1
phan rang,vn,9.34,110.31
maine-soroa,ne,12.62,11.91
maldonado,uy,-40.9,-50.65
alyangula,au,-14.58,140.83
kerteh,my,4.36,103.84
chicama,pe,-12.96,-87.85
lodja,cd,-2.55,23.65
springbok,za,-29.66,19.08
nizhniy baskunchak,ru,48.16,46.82
semey,kz,49.55,78.45
parrita,cr,8.2,-85.51
aasiaat,gl,71.45,-52.91
abha,sa,18.38,42.33
peterhead,gb,58.34,-0.57
alihe,cn,51.42,122.97
bundaberg,au,-20.56,155.68
slave lake,ca,55.84,-114.15
ningxiang,cn,28.32,112.81
black river,jm,17.4,-79.01
point fortin,tt,10.01,-61.83
quebec,ca,46.78,-71.2
mlimba,tz,-8.79,35.9
uspenka,ru,57.06,69.55
krasnokholm,ru,51.55,54.04
puerto quijarro,bo,-18.32,-57.35
am timan,td,11.12,20.58
conde,br,-15.41,-32.6
barranca,pe,-4.45,-76.96
aden,ye,13.21,47.06
avera,pf,-26.69,-155.36
ulladulla,au,-38.85,155.73
villa carlos paz,ar,-30.71,-65.58
dalvik,is,67.41,-18.8
matsanga,cg,-1.69,12.77
sakakah,sa,28.77,38.67
prieska,za,-28.94,22.89
falealupo,ws,-14.0,-173.86
wanlaweyn,so,3.58,44.78
manokwari,id,2.47,133.1
lagunas,pe,-5.0,-75.32
atar,mr,23.47,-12.75
wahiawa,us,25.1,-157.2
semnan,ir,34.1,54.0
biltine,td,16.53,22.65
pierre,us,44.35,-100.9
bilibino,ru,71.51,167.01
fasa,ir,28.95,53.22
penzance,gb,47.62,-8.45
ondjiva,ao,-15.89,15.92
bingen,de,49.92,7.85
humberto de campos,br,-1.43,-43.21
carbonia,it,38.09,7.1
denpasar,id,-14.83,114.5
itaituba,br,-5.82,-55.23
almeria,es,36.32,-2.18
berdsk,ru,54.48,83.05
bernalillo,us,35.33,-106.56
bur gabo,so,-2.77,44.42
bathurst,ca,47.32,-66.33
coronel fabriciano,br,-19.42,-42.68
lahaina,us,20.14,-157.49
leland,no,65.99,12.93
moses lake,us,47.11,-118.57
xuanhua,cn,39.8,114.8
mezen,ru,69.1,46.86
ostrovnoy,ru,84.25,41.33
bargal,so,9.92,55.96
urengoy,ru,64.68,80.22
palestina,ec,-1.9,-79.73
sainte-rose,re,-21.03,56.12
khonuu,ru,66.14,141.08
atambua,id,-9.53,126.63
wenling,cn,27.47,122.42
yuancheng,cn,24.2,115.3
tiznit,ma,25.46,-9.79
mednogorsk,ru,51.01,57.59
kamaishi,jp,35.54,148.12
palembang,id,-2.97,104.59
kolpashevo,ru,58.51,83.55
touros,br,1.51,-27.16
kungurtug,ru,51.89,97.87
usak,tr,38.58,29.33
dukat,ru,64.15,155.18
mangrol,in,19.33,68.21
pochutla,mx,15.04,-96.53
mogoytuy,ru,51.18,115.02
bacungan,ph,9.95,118.74
povazska bystrica,sk,48.99,18.38
hay river,ca,59.0,-113.55
negara,id,-8.2,114.69
pitea,se,64.51,21.83
gallup,us,34.67,-109.08
guilin,cn,25.78,110.62
batemans bay,au,-38.46,151.08
chaochou,tw,22.45,120.75
sobolevo,ru,54.2,154.02
yamada,jp,39.24,142.81
kalanguy,ru,50.88,116.73
ambulu,id,-10.53,112.93
manaira,br,-7.52,-38.31
sabang,id,6.29,94.58
urumqi,cn,42.99,88.42
sabha,ly,25.6,17.07
kihei,us,19.08,-157.21
san juan,ar,-31.46,-69.43
bilma,ne,19.42,11.27
tlacotepec,mx,17.64,-99.92
kalmunai,lk,7.69,86.39
sheridan,us,45.73,-106.78
ialibu,pg,-6.79,144.37
tommot,ru,59.3,126.7
buloh kasap,my,3.0,102.77
toamasina,mg,-17.83,49.56
laguna,br,-32.52,-41.64
wilmington,us,33.79,-77.14
mchinji,mw,-13.68,33.02
rocha,uy,-36.73,-51.77
fort morgan,us,40.58,-103.65
faya,td,20.94,22.77
brewster,us,42.17,-68.84
anajatuba,br,-3.23,-44.52
yining,cn,44.4,80.96
tagusao,ph,11.43,115.59
kenmare,ie,51.95,-9.64
pemangkat,id,2.31,106.75
keti bandar,pk,23.07,66.46
monte patria,cl,-31.07,-70.68
sorong,id,2.0,132.2
mumford,gh,3.72,-0.43
yurimaguas,pe,-6.16,-75.1
raudeberg,no,62.5,4.96
nenjiang,cn,49.22,125.45
curup,id,-2.45,102.76
madrid,co,4.74,-74.28
yar,ru,58.08,51.75
klamath falls,us,42.63,-122.25
kochki,ru,54.16,80.61
karaton,kz,46.46,52.57
marcona,pe,-20.67,-84.02
gamba,ga,-4.09,7.7
bandar-e anzali,ir,37.85,49.91
ingham,au,-19.11,146.17
ovalle,cl,-31.02,-74.24
gainesville,us,34.34,-83.98
itarema,br,4.16,-37.54
vincennes,us,38.73,-87.38
katrineholm,se,58.81,16.29
hoquiam,us,47.53,-124.24
kota tinggi,my,1.63,104.01
morgan city,us,27.88,-91.46
cumana,ve,10.42,-64.31
tessalit,ml,23.34,4.82
vittoria,it,36.85,14.33
omsukchan,ru,60.05,155.84
warqla,dz,27.55,6.04
san cayetano,co,5.34,-74.09
aswan,eg,22.27,28.23
hadsund,dk,56.61,10.17
kozhva,ru,65.52,56.48
okhotsk,ru,61.05,144.0
jardim,br,4.73,-33.52
gambo,ca,48.28,-54.0
capitan bado,py,-23.08,-55.78
ekhabi,ru,53.87,144.36
viedma,ar,-42.13,-60.37
meyungs,pw,13.42,133.17
bulgan,mn,47.26,103.25
babu,cn,24.94,111.71
benidorm,es,37.9,0.12
san clemente,cl,-35.92,-70.33
nizhniy odes,ru,63.76,54.37
koroni,gr,36.64,22.18
lebyazhye,ru,55.13,66.27
komsomolskiy,ru,75.17,173.67
baruun-urt,mn,46.97,114.66
aldan,ru,58.4,123.98
voh,nc,-22.72,163.38
matay,eg,27.37,27.85
khorixas,na,-19.99,14.84
benghazi,ly,33.96,18.86
verkhovazhye,ru,60.26,41.84
sao raimundo nonato,br,-9.48,-43.04
tasbuget,kz,43.38,64.92
manono,cd,-7.76,26.33
rassvet,ru,57.3,91.85
lerik,az,38.81,48.12
port-cartier,ca,50.97,-67.61
teahupoo,pf,-18.1,-149.38
nemuro,jp,40.95,145.7
sao miguel do araguaia,br,-13.45,-51.72
chilca,pe,-13.02,-77.51
price,us,37.72,-110.48
samarai,pg,-15.27,150.94
roald,no,72.75,0.04
koundara,gn,12.2,-13.35
leningradskiy,ru,82.2,175.94
kruisfontein,za,-57.39,25.67
santo tomas,pe,-14.37,-72.18
aktau,kz,42.67,49.93
quang ngai,vn,16.08,111.51
ngerengere,tz,-6.86,38.09
sulangan,ph,11.39,128.34
hokitika,nz,-41.13,168.73
inta,ru,68.14,58.96
agboville,ci,5.83,-4.25
diffa,ne,13.17,13.64
calabozo,ve,8.56,-68.37
elat,il,28.91,35.16
kamenka,ru,72.52,44.83
oriximina,br,1.24,-57.13
pringsewu,id,-8.25,101.8
chaiyaphum,th,15.67,102.1
jining,cn,41.8,113.46
saraland,us,31.09,-88.46
muncie,us,40.16,-85.14
veraval,in,17.4,68.54
ahumada,mx,29.91,-106.22
luchow,de,52.95,11.01
haapiti,pf,-19.0,-151.06
brainerd,us,46.22,-93.46
karachev,ru,53.09,34.81
colares,pt,38.07,-13.46
fort myers beach,us,25.35,-83.86
puerto wilches,co,7.38,-73.82
prachuap khiri khan,th,11.66,99.59
mafinga,tz,-7.75,35.02
seminole,us,27.38,-85.39
bolungarvik,is,68.92,-28.59
rolante,br,-29.87,-50.68
west wendover,us,39.96,-114.17
baykit,ru,63.95,93.7
narovchat,ru,54.09,43.65
upington,za,-29.74,20.26
sussex,ca,46.04,-65.48
ostersund,se,62.76,15.9
nuuk,gl,61.24,-54.56
maningrida,au,-10.63,134.1
heishan,cn,41.8,121.9
alindao,cf,4.97,20.95
tempoal,mx,21.59,-98.37
damavand,ir,35.87,52.5
tripoli,ly,33.78,12.78
ryki,pl,51.58,22.26
kudahuvadhoo,mv,1.99,70.04
regina,ca,49.76,-104.6
yuzhno-yeniseyskiy,ru,59.98,94.36
pouso alegre,br,-22.38,-45.89
ciudad bolivar,ve,5.4,-64.33
sumbe,ao,-10.44,12.28
volovo,ru,51.97,37.95
merauke,id,-7.54,136.97
presidente epitacio,br,-21.48,-52.8
lujan,ar,-32.99,-69.61
scottsbluff,us,42.18,-103.67
jiayuguan,cn,43.12,98.24
karema,tz,-6.11,30.12
berlevag,no,76.14,29.74
cheuskiny,ru,61.47,72.06
miri,my,5.38,113.6
marrakesh,ma,31.05,-6.16
severnyy,ru,70.02,64.47
barcelos,br,-0.86,-60.71
nishihara,jp,19.27,133.6
norilsk,ru,69.13,88.27
vila,vu,-15.72,170.34
rypin,pl,52.99,19.51
aripuana,br,-10.66,-58.5
bonavista,ca,53.01,-49.21
xghajra,mt,36.19,14.87
drumnadrochit,gb,57.29,-4.9
sarahan,in,31.96,78.09
axim,gh,-3.5,-2.35
obama,jp,35.43,135.64
surgut,ru,61.52,73.96
biak,id,3.12,138.24
havoysund,no,73.43,24.17
ijaki,ki,-3.73,175.81
godda,in,24.98,87.45
nizhniy tsasuchey,ru,49.97,115.24
yumen,cn,39.11,97.51
talawdi,sd,10.45,30.5
saint-leu,re,-22.29,53.98
quelimane,mz,-20.44,37.51
havre-saint-pierre,ca,50.73,-62.25
dauphin,ca,51.66,-98.58
konstantinovka,ru,49.37,128.22
grand island,us,41.86,-99.02
akyab,mm,20.14,93.71
odweyne,so,9.58,45.57
linqing,cn,36.91,115.38
christchurch,nz,-48.36,176.63
envira,br,-7.39,-69.66
evensk,ru,64.38,159.29
alugan,ph,17.27,132.23
san luis,ar,-33.99,-67.15
windhoek,na,-22.49,17.44
tulagi,sb,-9.4,160.63
maniitsoq,gl,64.05,-53.23
uige,ao,-6.77,15.5
chancay,pe,-11.58,-77.74
tabiauea,ki,-3.31,168.52
warmbad,na,-29.05,19.38
nelson bay,au,-35.6,156.83
dargaville,nz,-37.3,172.04
luwuk,id,-1.96,124.51
kedrovyy,ru,59.15,79.04
rafai,cf,6.61,24.22
sepolno krajenskie,pl,53.49,17.6
anloga,gh,4.57,1.09
meinung,tw,23.0,120.52
bambanglipuro,id,-11.11,110.7
chipinge,zw,-20.58,33.54
gorom-gorom,bf,14.8,0.16
santana do livramento,br,-30.59,-55.66
antalaha,mg,-14.05,54.53
manggar,id,-1.85,109.62
gambat,pk,27.38,68.42
kendari,id,-3.81,125.33
nabire,id,-3.3,134.77
butembo,cd,0.27,28.08
catazaja,mx,17.84,-92.09
karaul,ru,68.36,84.25
giyon,et,7.99,37.76
soure,br,-0.48,-49.16
starotimoshkino,ru,53.8,47.57
tari,pg,-5.72,142.87
moron,mn,48.19,99.01
novoseleznevo,ru,56.04,68.97
kinchil,mx,20.82,-90.13
fukue,jp,30.93,127.36
mount isa,au,-17.18,140.18
pioner,ru,55.38,85.8
sao joao do piaui,br,-8.46,-42.26
guanica,us,17.79,-66.99
panguna,pg,-6.29,153.49
plouzane,fr,47.1,-5.47
lichinga,mz,-12.65,35.21
port hardy,ca,41.38,-140.11
pryazha,ru,61.49,33.9
cabedelo,br,-6.89,-34.64
sayyan,ye,16.38,45.8
chico,us,39.74,-121.87
nizhniy kuranakh,ru,60.9,123.47
mizpe ramon,il,30.3,34.14
tieli,cn,46.19,128.26
marawi,sd,19.65,27.16
muroto,jp,30.09,135.21
deputatskiy,ru,70.15,142.44
takoradi,gh,-2.03,-0.3
tigre,pa,12.25,-78.05
dubai,ae,24.83,55.13
muhos,fi,65.12,26.78
yabrud,sy,34.21,36.77
san matias,bo,-16.15,-59.03
mutsamudu,km,-7.95,47.32
mulchen,cl,-37.73,-71.07
saint-pierre,pm,37.12,-54.75
nanga eboko,cm,5.09,12.33
weatherford,us,36.14,-98.56
progreso,mx,23.81,-90.22
vagur,fo,60.4,-5.83
presidente medici,br,-11.99,-62.53
viligili,mv,1.23,74.27
basoko,cd,1.37,24.16
great yarmouth,gb,54.4,2.0
zhuhai,cn,19.64,113.59
bima,id,-7.62,119.62
dhana,in,23.68,78.8
acapulco,mx,5.28,-106.13
inverell,au,-30.12,151.1
boende,cd,-0.59,21.86
necochea,ar,-41.81,-58.83
itacoatiara,br,-1.95,-58.75
perelyub,ru,51.16,50.59
japura,br,-1.61,-71.64
ballina,au,-30.83,159.02
shimoda,jp,22.7,143.33
afrikanda,ru,67.0,33.18
pak phanang,th,8.95,101.12
jiroft,ir,28.12,58.57
egvekinot,ru,61.73,-179.86
covington,us,33.29,-83.78
wollongong,au,-34.13,150.74
neiafu,to,-17.97,-177.51
arauca,co,6.84,-70.72
krasnogvardeyets,ru,52.84,52.48
volchikha,ru,52.19,80.69
vostok,ru,50.7,146.35
chunoyar,ru,57.18,96.81
nipawin,ca,54.38,-103.64
dakar,sn,15.95,-19.69
neuquen,ar,-38.84,-68.44
mbaiki,cf,2.97,17.67
boulder city,us,36.26,-114.59
tres picos,mx,15.98,-93.6
ottawa,ca,45.64,-75.88
sarangani,ph,4.01,126.0
palafrugell,es,41.75,3.46
shingu,jp,25.44,138.0
hirara,jp,27.69,125.05
belyy yar,ru,58.49,85.97
iiyama,jp,36.98,138.43
kabelvag,no,68.25,14.33
novochernorechenskiy,ru,56.47,91.18
walsrode,de,52.92,9.59
gloversville,us,43.79,-74.34
oconomowoc,us,42.96,-88.44
karkaralinsk,kz,50.38,75.68
viborg,dk,56.42,9.49
bourail,nc,-25.33,162.96
mazatlan,mx,22.33,-107.59
colesberg,za,-30.42,25.5
karasjok,no,69.22,25.21
houma,us,26.74,-90.28
pendleton,us,44.74,-119.05
tubruq,ly,33.27,24.21
tadine,nc,-22.08,168.7
guiratinga,br,-15.82,-53.21
sataua,ws,-4.15,-173.45
muyezerskiy,ru,63.42,31.02
tuban,ph,6.91,125.31
williams lake,ca,51.97,-122.09
baker city,us,44.51,-117.41
fevralsk,ru,53.37,130.59
halle,de,51.55,12.0
wasilla,us,61.63,-149.75
khandyga,ru,64.82,133.87
fort-shevchenko,kz,45.59,50.44
ulkan,ru,57.13,107.72
port moresby,pg,-12.08,147.07
acarau,br,9.93,-38.79
linhares,br,-19.08,-40.03
alghero,it,40.34,7.44
kyshtovka,ru,56.91,77.27
platteville,us,43.22,-90.62
linqiong,cn,32.02,101.92
araguaina,br,-7.89,-48.09
tancheng,cn,34.76,118.4
pavlovsk,ru,53.67,83.03
itacarambi,br,-15.1,-43.73
gilazi,az,41.59,49.62
dolbeau,ca,53.22,-71.59
stornoway,gb,59.06,-8.13
vallenar,cl,-26.66,-76.8
zhirnovsk,ru,50.98,44.67
aguas belas,br,-9.2,-37.14
parambu,br,-6.04,-40.62
umea,se,64.38,19.32
bogorodskoye,ru,52.52,139.58
jaguey grande,cu,22.15,-81.56
ucluelet,ca,46.01,-129.54
alta floresta,br,-10.48,-56.17
krasnomayskiy,ru,57.81,34.57
anito,ph,16.73,130.6
ambilobe,mg,-13.58,48.95
nongan,cn,44.3,125.27
agadez,ne,16.36,8.88
jasper,ca,52.02,-118.47
tianpeng,cn,32.01,103.09
abashiri,jp,43.76,144.53
tual,id,-6.13,130.46
limbang,my,2.85,115.17
uglezavodsk,ru,47.52,142.64
muriwai beach,nz,-37.43,172.61
iguape,br,-26.66,-46.16
santa fe,cu,21.86,-81.92
kaabong,ug,4.31,35.05
xiaoshi,cn,41.57,124.22
la rioja,ar,-30.55,-67.01
candawaga,ph,11.31,114.74
vitim,ru,60.57,110.58
tukrah,ly,33.46,20.79
sawakin,sd,19.13,37.51
araouane,ml,18.81,-6.42
ust-kalmanka,ru,52.06,83.5
kurilsk,ru,46.06,147.63
labytnangi,ru,68.72,67.01
katangli,ru,52.18,146.77
nisia floresta,br,-5.78,-33.16
tazovskiy,ru,70.56,77.9
broome,au,-22.7,123.05
shubarkuduk,kz,48.19,55.21
batagay-alyta,ru,65.97,129.18
enugu,ng,6.38,7.59
banyo,cm,7.03,11.52
las juntas,mx,19.52,-104.81
sao felix do xingu,br,-8.33,-53.18
winton,nz,-46.24,168.43
chumikan,ru,55.94,136.45
the hammocks,us,25.66,-80.87
mae sai,th,20.95,99.96
bukachacha,ru,55.08,116.77
longonjo,ao,-12.62,15.19
phalodi,in,27.84,72.55
nizwa,om,23.68,57.09
menongue,ao,-15.43,17.35
roshchino,ru,55.59,61.17
keetmanshoop,na,-26.62,18.52
inhambane,mz,-22.64,36.98
salinas,ec,-2.63,-82.02
french harbor,hn,17.19,-86.63
ko samui,th,10.45,101.42
pacific grove,us,33.94,-124.25
sidi ali,dz,36.18,1.07
ukiah,us,37.68,-127.0
ketchikan,us,51.75,-133.5
aban,ru,57.08,96.36
mapulo,ph,13.76,121.16
longjiang,cn,47.27,122.97
urusha,ru,53.02,123.02
turayf,sa,31.55,38.54
sterling,us,57.33,-147.92
funadhoo,mv,6.47,74.56
mogadishu,so,-1.39,47.62
muisne,ec,2.65,-84.99
whitehorse,ca,62.97,-131.91
buraydah,sa,25.3,43.83
kuala krai,my,5.46,102.19
bodmin,gb,50.41,-4.51
songjianghe,cn,42.1,127.92
pandan,ph,15.3,125.61
saryshagan,kz,45.52,73.09
sembe,cg,2.69,14.11
vikulovo,ru,56.93,70.75
edirne,tr,41.77,26.53
tigil,ru,57.26,159.14
ugoofaaru,mv,5.04,66.26
mayo,ca,64.5,-132.03
matara,lk,0.48,80.86
say,ne,12.83,1.67
chaparral,co,3.81,-75.52
puerto el triunfo,sv,11.73,-88.88
champerico,gt,9.96,-95.36
kyabram,au,-36.67,145.29
amuntai,id,-1.47,114.93
polovinnoye,ru,54.45,65.71
dakoro,ne,14.13,6.78
cumberland,us,39.76,-78.36
mitu,co,1.43,-69.65
hovd,mn,46.17,102.14
omboue,ga,-3.62,6.07
coro,ve,11.83,-69.66
one hundred mile house,ca,53.1,-120.71
wencheng,cn,37.02,121.77
lebedyan,ru,53.06,39.13
kristinehamn,se,60.48,14.05
vung tau,vn,7.2,108.93
khasan,ru,39.57,130.18
viransehir,tr,36.3,39.61
copiapo,cl,-26.97,-70.92
espanola,ca,46.27,-81.92
fuyang,cn,30.09,119.32
ardakan,ir,32.58,54.57
vrangel,ru,42.09,132.81
iztapa,gt,13.83,-90.58
ondorhaan,mn,48.46,109.83
pangai,to,-19.0,-176.22
serik,tr,36.6,30.95
chippewa falls,us,45.76,-90.86
leirvik,fo,66.59,-7.52
cockburn town,tc,21.37,-70.33
nguiu,au,-10.67,130.23
sao benedito do rio preto,br,-3.2,-43.86
prainha,br,0.22,-53.98
ngunguru,nz,-35.85,175.24
pocone,br,-16.66,-56.53
skjervoy,no,75.07,20.1
roma,au,-25.82,145.12
hailar,cn,49.66,119.73
koumac,nc,-21.33,163.87
yuncheng,cn,35.28,110.78
novoshcherbinovskaya,ru,46.47,38.69
suntar,ru,59.88,117.2
kajaani,fi,64.82,27.73
mirnyy,ru,53.56,50.32
angoche,mz,-15.95,39.85
apatity,ru,67.74,33.43
iralaya,hn,15.53,-83.13
humboldt,ca,52.51,-105.47
nandikotkur,in,16.05,78.35
ulety,ru,51.4,112.15
emerald,au,-24.26,143.62
cururupu,br,-1.06,-44.72
cody,us,44.93,-109.75
mercedes,ar,-33.27,-65.5
peniche,pt,41.78,-17.38
aybak,af,35.88,67.42
tocache,pe,-7.97,-77.04
todos santos,mx,23.25,-110.9
catamarca,ar,-27.27,-66.92
suihua,cn,47.04,126.91
kashi,cn,39.78,77.3
tateyama,jp,34.66,139.77
general roca,ar,-39.7,-65.74
sao gabriel da cachoeira,br,-0.24,-67.39
palauig,ph,14.69,118.11
kabo,cf,8.3,19.38
ambodifototra,mg,-16.6,50.41
aljezur,pt,36.79,-9.95
fort payne,us,34.45,-85.79
taguatinga,br,-12.91,-45.99
manalurpet,in,11.96,78.87
soloneshnoye,ru,51.4,84.32
qabaqcol,az,41.76,46.21
mandurah,au,-31.91,112.45
whitecourt,ca,54.07,-115.2
along,in,28.85,94.93
ginir,et,7.05,42.53
galesong,id,-5.76,118.03
burrel,al,41.64,20.06
mhango,tz,-3.32,32.56
manica,mz,-18.02,32.89
carballo,es,45.91,-10.9
ulaangom,mn,48.94,91.07
quatre cocos,mu,-17.53,66.67
berezna,ua,51.34,31.96
sandpoint,us,48.02,-116.57
mecca,sa,23.28,40.5
harindanga,in,19.58,89.5
ruatoria,nz,-33.07,179.43
mineros,bo,-17.22,-63.2
oxilithos,gr,38.49,24.19
mastung,pk,29.37,67.14
trairi,br,3.35,-35.62
kapit,my,0.54,112.93
jurilovca,ro,44.78,29.12
bouloupari,nc,-21.94,165.88
balikpapan,id,-2.09,117.43
santa cruz,cr,7.82,-88.69
pozo colorado,py,-23.01,-59.4
brandfort,za,-28.59,26.15
tocopilla,cl,-21.92,-71.51
venice,us,26.19,-84.58
tapaua,br,-5.22,-62.76
inirida,co,3.92,-65.87
puerto penasco,mx,30.72,-114.03
soligalich,ru,59.01,42.15
juchipila,mx,21.28,-103.08
ushibuka,jp,32.18,129.66
honiara,sb,-10.11,158.07
lithakia,gr,35.92,19.82
bintulu,my,5.04,111.42
vysokogornyy,ru,50.08,139.25
dongsheng,cn,40.23,108.67
blackwater,au,-23.55,148.71
chase,ca,51.22,-119.78
muborak,uz,39.33,64.87
arica,cl,-18.84,-70.49
bermeo,es,43.9,-2.45
casper,us,43.67,-106.1
pakxan,la,18.82,104.05
sao mateus,br,-19.15,-39.45
toliary,mg,-23.81,42.94
lishui,cn,28.35,119.54
katherine,au,-17.97,131.79
rincon,an,12.91,-67.94
inderborskiy,kz,49.17,51.72
marsa matruh,eg,30.89,26.82
chingirlau,kz,49.29,54.29
burica,pa,6.31,-82.19
kapoeta,sd,6.39,32.93
pingliang,cn,35.21,106.75
keningau,my,5.29,116.22
beni,cd,1.33,28.83
wattegama,lk,5.59,84.61
cascas,pe,-7.17,-78.91
natitingou,bj,10.84,1.01
samalaeulu,ws,-12.83,-171.55
salihorsk,by,52.89,27.62
cravo norte,co,7.36,-69.12
gimbi,et,9.24,35.88
presidencia roque saenz pena,ar,-25.45,-62.08
erding,de,48.33,11.87
boo,se,59.04,18.7
urdzhar,kz,45.96,82.19
ouesso,cg,1.34,16.25
guozhen,cn,33.83,107.31
chachapoyas,pe,-6.27,-78.28
tuggurt,dz,32.15,7.3
kongsvinger,no,60.36,11.88
coolum beach,au,-25.1,158.96
fare,pf,-14.6,-150.35
sechura,pe,-12.28,-89.92
ust-kulom,ru,62.36,53.59
el faiyum,eg,29.37,29.24
chake chake,tz,-6.21,44.07
kariba,zw,-15.97,29.32
kijang,id,0.25,106.05
trinidad,bo,-14.51,-65.67
qaqortoq,gl,63.8,-44.48
coulihaut,dm,15.31,-62.14
effium,ng,7.06,8.0
andarab,af,35.51,68.93
anlu,cn,31.29,113.48
soria,es,41.13,-2.66
mattru,sl,5.61,-13.26
zhovtneve,ua,51.01,24.3
sao joaquim,br,-28.25,-50.29
tautira,pf,-16.48,-142.7
sieghartskirchen,at,48.3,15.99
pokhara,np,29.56,84.12
morton grove,us,42.05,-87.78
a,no,63.92,10.38
douglas,us,31.2,-108.88
elko,us,39.57,-116.41
mamallapuram,in,11.55,83.34
macapa,br,0.93,-50.81
conceicao do araguaia,br,-9.36,-51.67
ofaqim,il,31.31,34.57
ha tinh,vn,18.32,106.17
wewak,pg,-1.76,144.11
dayong,cn,28.86,110.34
kaita,jp,34.5,132.53
louisbourg,ca,45.22,-59.4
benjamin hill,mx,29.61,-111.24
vysha,ru,53.93,42.3
tyup,kg,43.62,78.5
mao,td,14.24,14.05
swan hill,au,-35.87,143.58
dzaoudzi,yt,-12.52,45.92
gouyave,gd,13.04,-63.27
narsingi,in,18.16,78.41
birjand,ir,33.33,58.34
jinchang,cn,40.94,102.46
bose,cn,23.54,106.19
bandar-e torkaman,ir,37.21,53.9
zajecar,rs,43.87,22.36
mariental,na,-25.35,17.62
bukama,cd,-10.16,25.8
ola,ru,59.27,153.33
la roche-sur-yon,fr,46.41,-1.59
naftah,tn,33.41,7.23
sesheke,zm,-17.73,24.54
ilhabela,br,-28.21,-42.58
tir pol,af,35.02,61.66
oranjestad,aw,14.15,-70.83
gotsu,jp,36.72,130.66
luchegorsk,ru,46.38,134.38
jubayl,lb,34.39,34.99
ardistan,ir,33.11,53.28
bizhbulyak,ru,53.61,54.29
madimba,tz,-10.73,40.53
san vicente,ar,-35.42,-58.92
providencia,mx,28.43,-111.74
amet,in,25.24,73.83
paucartambo,pe,-13.44,-70.89
rairangpur,in,21.98,86.33
mackenzie,ca,56.95,-123.82
galle,lk,4.94,78.41
vytegra,ru,60.13,36.18
outjo,na,-19.46,16.25
ibipeba,br,-11.81,-41.99
yichun,cn,28.05,114.14
tamandare,br,-8.85,-34.16
ipora,br,-16.63,-50.81
kristiansund,no,65.15,7.2
rokytne,ua,51.07,27.06
nakamura,jp,31.53,133.23
methoni,gr,35.93,20.33
baghdad,iq,33.27,44.74
kadykchan,ru,60.41,146.39
liberty,us,30.02,-94.48
kambove,cd,-10.82,26.05
polson,us,47.76,-114.28
akdagmadeni,tr,39.83,36.23
haibowan,cn,40.54,106.93
cruden bay,gb,56.86,-1.29
skaudvile,lt,55.54,22.57
soubre,ci,5.84,-6.76
sokolskoye,ru,57.07,43.04
imeni poliny osipenko,ru,53.31,136.39
ewo,cg,-0.54,14.35
praia da vitoria,pt,45.15,-22.65
akdepe,tm,40.23,58.55
lewisporte,ca,49.21,-55.01
narodychi,ua,51.36,29.37
bandundu,cd,-3.56,18.1
barcelona,ph,8.62,127.71
sur,om,18.28,63.88
anzio,it,40.29,11.88
maceio,br,-11.5,-32.92
reconquista,ar,-29.7,-59.94
tavda,ru,58.1,65.28
garden city,us,39.18,-101.03
teguldet,ru,57.88,88.19
gushikawa,jp,21.34,135.53
xixiang,cn,35.08,113.0
mahenge,tz,-9.26,36.8
pangoa,pe,-11.25,-72.77
krasnyy oktyabr,ua,48.21,38.11
melfi,td,10.65,18.41
kupang,id,-12.91,122.49
elbrus,ru,43.4,42.81
haarby,dk,55.2,10.09
dongkan,cn,34.8,120.41
makamba,bi,-4.41,29.48
minden,us,32.62,-92.98
key west,us,24.75,-81.84
dwarka,in,20.65,65.71
crab hill,bb,14.23,-59.15
qandala,so,10.34,49.82
port augusta,au,-27.95,138.43
tomatlan,mx,19.17,-108.12
tomigusuku,jp,26.52,126.83
edgewater,us,29.19,-80.29
koltubanovskiy,ru,52.96,52.17
icod de los vinos,es,29.13,-16.82
garissa,ke,0.0,39.44
tarbagatay,ru,51.17,107.03
sivaki,ru,51.44,126.3
rudbar,af,31.17,63.17
tongren,cn,28.25,108.92
healdsburg,us,37.4,-124.75
staraya kulatka,ru,52.91,47.51
ahuimanu,us,30.49,-154.6
bom jesus,br,-9.84,-43.74
khanewal,pk,30.18,72.09
mango,tg,10.86,0.94
luan,cn,31.45,115.86
miguel calmon,br,-11.37,-40.86
lima,pe,-14.62,-82.21
mitsamiouli,km,-9.1,45.08
markova,ru,58.11,106.33
tabas,ir,33.56,55.49
kedougou,sn,12.72,-12.42
tarauaca,br,-7.7,-71.16
raposa,br,-6.76,-44.52
sidhi,in,24.37,82.37
musenita,ro,47.96,26.02
yinchuan,cn,38.38,107.42
lucea,jm,18.23,-79.82
bargur,in,12.6,78.33
kainantu,pg,-6.11,146.57
tomra,no,62.62,6.96
ocampo,mx,27.22,-102.57
gambela,et,7.89,34.65
puerto vallarta,mx,20.48,-105.58
toora-khem,ru,53.81,96.55
sahuaripa,mx,29.6,-109.01
nova olinda do norte,br,-3.92,-59.16
huambo,ao,-13.36,15.92
krasnoarmeysk,kz,53.3,69.46
severo-yeniseyskiy,ru,62.05,93.66
galdar,es,29.07,-15.57
skibbereen,ie,47.98,-11.28
mpika,zm,-11.13,31.5
sieradz,pl,51.59,18.44
kibala,ao,-10.08,14.32
bereda,so,11.82,54.07
aksu,kz,51.48,77.0
esna,eg,24.58,31.67
vidalia,us,31.95,-82.74
krasnyy chikoy,ru,49.61,108.78
villa bruzual,ve,8.98,-68.69
svobodnyy,ru,51.18,128.03
alotau,pg,-10.18,148.95
tungkang,tw,20.78,120.25
noyabrsk,ru,62.56,74.51
stolin,by,52.29,26.91
calubcub,ph,13.62,121.62
bacuit,ph,13.4,114.63
kailua,us,23.99,-156.65
lucapa,ao,-7.53,19.97
cubuk,tr,40.4,32.58
chlorakas,cy,34.93,31.45
galiwinku,au,-9.87,136.42
shache,cn,38.82,77.59
johi,pk,26.83,67.39
aykhal,ru,65.28,107.98
hvide sande,dk,55.52,6.49
puerto leguizamo,co,-0.99,-72.9
coromandel,nz,-35.62,175.66
jabiru,au,-12.31,132.07
kemin,kg,42.72,75.76
harnosand,se,63.08,18.2
moranbah,au,-21.12,147.22
pareora,nz,-45.29,171.75
mumbwa,zm,-15.18,27.25
tatahuicapan,mx,18.24,-94.73
catarman,ph,9.03,124.6
sokoni,tz,-6.77,40.99
the pas,ca,53.71,-100.47
camopi,gf,3.22,-53.43
cavalcante,br,-14.15,-47.61
shyroke,ua,47.78,33.21
awbari,ly,28.33,10.9
vilyuysk,ru,60.95,122.3
micomeseng,gq,2.36,10.89
uray,ru,60.22,65.21
horta,pt,35.74,-27.88
akonolinga,cm,3.84,12.66
mount pleasant,us,30.96,-79.19
karwar,in,13.65,72.52
trapani,it,38.82,12.16
afmadu,so,0.19,41.97
casma,pe,-9.59,-78.08
la romana,do,16.89,-68.84
ahwa,in,20.75,73.67
manzanillo,mx,15.61,-105.72
bend,us,44.21,-121.64
goya,ar,-30.01,-58.8
mbini,gq,1.41,7.32
mudigere,in,13.11,75.58
vlore,al,40.52,19.09
mendahara,id,-0.71,103.13
sintea mare,ro,46.58,21.63
tillabery,ne,14.3,1.15
skelleftea,se,65.83,19.48
barbar,sd,18.69,35.18
porbandar,in,18.67,66.64
rawannawi,ki,2.72,174.63
cockburn harbour,tc,22.83,-72.04
orlovskiy,ru,50.72,114.78
smila,ua,49.07,32.01
oktyabrskoye,ru,63.11,68.47
grand centre,ca,59.75,-109.69
shitanjing,cn,39.05,104.86
havelock,us,32.63,-73.95
vilkaviskis,lt,54.71,23.07
xunchang,cn,28.08,104.81
dovers,vc,12.39,-60.78
canyon lake,us,29.8,-98.44
tingi,tz,-11.81,35.16
aqtobe,kz,50.46,56.58
novikovo,ru,45.68,144.9
zhoucheng,cn,24.42,101.04
atoka,us,35.37,-89.75
oktyabrskiy,ru,52.34,156.23
jian,cn,26.75,115.1
ajdabiya,ly,30.54,20.88
les cayes,ht,17.62,-73.45
birin,dz,34.62,3.99
auburn,us,43.04,-76.78
pinerolo,it,44.81,7.26
xichang,cn,28.35,103.07
la palma,pa,6.76,-81.09
karoi,zw,-16.21,29.86
warrnambool,au,-39.47,142.68
vera cruz,br,-12.71,-41.05
bartow,us,27.63,-81.89
barber,an,12.25,-69.05
nanhai,cn,29.75,111.43
cagayan de tawi-tawi,ph,6.87,118.39
russkiy,ru,43.08,131.76
barinas,ve,8.74,-70.18
makhu,in,31.13,75.06
satipo,pe,-10.99,-74.57
ambovombe,mg,-32.41,47.55
pasni,pk,24.4,63.81
simpang,id,-0.61,104.33
kenora,ca,49.44,-93.86
kalianget,id,-5.6,115.17
ankazoabo,mg,-22.33,44.66
boden,se,66.08,21.72
dimbokro,ci,6.63,-4.85
akodia,in,23.31,76.46
manuk mangkaw,ph,4.51,120.19
saurimo,ao,-9.32,18.43
capoterra,it,38.18,9.24
churhat,in,24.3,81.55
tawang,in,27.91,91.64
nueva italia de ruiz,mx,18.88,-102.06
amga,ru,61.03,132.81
pakxe,la,15.34,105.84
pojuca,br,-12.28,-38.35
lhokseumawe,id,5.09,97.12
bukavu,cd,-2.86,28.73
gangotri,in,32.64,80.41
mastic beach,us,40.23,-72.19
poso,id,-0.85,121.07
nove straseci,cz,50.11,13.84
socorro,us,34.24,-107.12
sim,ru,54.61,57.6
nuevo progreso,mx,23.28,-97.53
nyurba,ru,66.51,118.43
denia,es,38.37,0.87
devils lake,us,47.88,-99.35
tambacounda,sn,13.37,-13.24
seohara,in,29.17,78.56
chernyshevskiy,ru,61.53,111.42
dandong,cn,39.32,125.96
maloshuyka,ru,64.47,36.82
san francisco,ar,-29.35,-62.7
medeiros neto,br,-17.31,-39.91
hanko,fi,59.76,22.51
saraza,ph,8.23,118.19
yeppoon,au,-20.08,153.5
talcher,in,21.46,85.34
kanniyakumari,in,5.27,77.32
sharon,us,41.22,-80.6
jibuti,dj,11.1,43.26
dapaong,tg,11.09,0.25
forbes,au,-33.54,147.23
inyonga,tz,-6.87,32.27
kisangani,cd,1.73,25.68
kalga,ru,50.82,118.78
amapa,br,2.21,-50.56
khorramabad,ir,33.15,48.26
kozlovka,ru,50.98,40.42
furstenfeld,at,47.17,15.96
balsas,br,-8.01,-45.81
la grande,us,45.3,-117.47
danielskuil,za,-28.7,23.45
tignere,cm,7.41,12.22
ishigaki,jp,22.99,123.38
starachowice,pl,50.91,20.99
gao,ml,15.86,-1.26
blagoveshchenka,ru,52.78,79.47
isla vista,us,28.14,-122.53
duldurga,ru,50.79,113.21
seguin,us,29.69,-97.94
malpe,in,12.99,73.17
ust-uda,ru,55.21,103.17
krasnorechenskiy,ru,44.73,135.34
holt,us,42.53,-84.63
spassk,ru,52.43,87.61
baculin,ph,7.56,129.06
igarka,ru,68.46,86.54
taonan,cn,45.28,122.45
prabumulih,id,-3.64,104.65
piacabucu,br,-15.5,-31.44
leninskoye,ru,47.62,133.19
lokosovo,ru,60.36,75.4
dryden,ca,49.26,-92.9
amahai,id,-1.41,128.04
zolotukhino,ru,52.19,36.43
jimma,et,7.62,36.9
chiredzi,zw,-22.15,32.68
san juan de flores,hn,14.29,-87.09
rajauri,in,33.49,74.56
thessalon,ca,45.99,-83.98
spisska nova ves,sk,48.93,20.55
juifang,tw,25.94,122.91
tchibanga,ga,-3.31,11.25
tebingtinggi,id,3.64,99.33
le port,re,-19.31,54.11
turbat,pk,27.27,63.91
galveston,us,26.37,-92.69
juegang,cn,33.63,123.04
yomitan,jp,28.0,125.66
smidovich,ru,48.86,133.53
conceicao da barra,br,-19.46,-37.86
jertih,my,6.16,103.04
itupeva,br,-17.36,-40.79
felidhoo,mv,3.94,76.61
ylivieska,fi,64.31,24.54
santa marta de tormes,es,40.66,-5.34
dungarpur,in,24.05,73.54
baiyin,cn,37.36,103.82
porto santo,pt,32.12,-15.6
tanhacu,br,-13.94,-41.18
nara,ml,15.6,-7.43
dobryatino,ru,55.45,41.31
wulanhaote,cn,45.7,119.15
cache creek,ca,50.77,-121.5
betanzos,bo,-19.85,-65.1
pelasyia,gr,38.98,22.76
katete,zm,-15.12,32.09
jalalabad,af,34.52,70.51
pathardih,in,23.65,86.38
temaraia,ki,0.51,175.57
kolaras,in,25.5,77.41
kouango,cf,5.09,19.56
prnjavor,ba,44.83,17.6
kongolo,cd,-5.0,28.1
inongo,cd,-1.94,17.56
nuzvid,in,16.99,80.98
souris,ca,46.01,-62.29
saint-joseph,re,-31.68,55.88
bayir,jo,29.57,37.84
harigue,ph,11.6,121.35
lubigan,ph,13.74,122.95
salta,ar,-25.24,-66.68
funtua,ng,11.36,7.5
tabuk,sa,27.99,36.66
wladyslawowo,pl,55.71,18.3
novoye atlashevo,ru,55.98,47.45
nova russas,br,-4.78,-40.53
pucallpa,pe,-8.01,-74.57
huangpi,cn,30.78,114.46
shenjiamen,cn,31.36,124.75
buenos aires,cr,8.55,-83.62
portales,us,34.22,-103.28
jieshi,cn,21.76,115.69
maple creek,ca,50.11,-109.13
belorechensk,ru,58.59,52.69
kosa,ru,59.79,55.63
mergui,mm,12.56,97.57
sosva,ru,59.19,61.5
duz,tn,31.95,8.36
westport,ie,55.74,-15.58
anori,br,-3.25,-61.46
jashpurnagar,in,22.58,83.95
saint-louis,re,-21.36,55.38
santa isabel do rio negro,br,2.74,-64.35
puerto gaitan,co,3.85,-71.59
batagay,ru,68.23,134.45
skagastrond,is,66.22,-20.97
opoczno,pl,51.44,20.49
ihosy,mg,-22.04,45.86
shagonar,ru,51.8,92.94
taburi,ph,9.15,116.24
mananara,mg,-15.88,49.77
brigantine,us,36.82,-71.79
kysyl-syr,ru,61.27,123.75
llangefni,gb,53.49,-4.33
emirdag,tr,39.34,31.41
basco,ph,20.4,125.22
azul,ar,-36.29,-59.28
muzhi,ru,65.99,64.95
lyuban,by,52.77,27.96
salamiyah,sy,34.62,38.28
vikersund,no,60.01,10.04
sangmelima,cm,2.8,12.47
andenes,no,69.58,16.6
maragogi,br,-14.43,-26.88
graham,us,32.62,-98.7
businga,cd,3.21,21.01
tarudant,ma,27.36,-6.67
vanimo,pg,-0.87,140.43
washington,us,38.53,-87.25
molina,cl,-35.54,-70.69
dezhou,cn,37.51,116.4
san carlos de bariloche,ar,-40.97,-71.25
ojinaga,mx,28.39,-103.48
zabid,ye,12.92,43.34
high level,ca,58.04,-118.86
lebedyn,ua,50.79,34.24
kunzell,de,50.5,9.97
ystad,se,55.27,14.04
alcaniz,es,40.95,0.11
zaragoza,es,41.29,-0.8
vangaindrano,mg,-24.94,50.53
zarand,ir,30.77,56.39
samus,ru,57.06,84.91
jasidih,in,24.41,86.66
suoyarvi,ru,61.6,32.08
safford,us,33.09,-109.0
mahuva,in,21.06,71.89
umm jarr,sd,14.26,32.52
dok kham tai,th,19.22,100.01
shelopugino,ru,51.38,117.32
sheopur,in,25.9,77.02
zeya,ru,54.71,129.12
bezhetsk,ru,57.63,36.39
sonipat,in,29.02,76.87
shetpe,kz,45.2,51.36
krasavino,ru,60.9,46.45
doume,cm,3.57,14.05
el badari,eg,26.86,31.25
bensonville,lr,6.78,-10.33
aubange,be,49.57,5.8
talesh,ir,38.0,48.65
lazaro cardenas,mx,7.91,-107.38
tongchuan,cn,35.98,108.43
tongliao,cn,42.94,122.41
nkhata bay,mw,-11.35,34.32
sasina,ws,-12.83,-172.52
shaki,ng,8.51,3.18
fort abbas,pk,28.63,72.92
bagh,in,22.45,74.84
rizhao,cn,35.01,120.41
patacamaya,bo,-18.13,-68.41
kousseri,cm,12.32,14.43
san ramon de la nueva oran,ar,-23.88,-62.97
pahrump,us,37.49,-115.56
wesselsbron,za,-28.04,26.37
bairiki,ki,1.16,169.79
piste,mx,20.36,-88.64
hammerfest,no,74.83,21.76
irbeyskoye,ru,55.16,96.31
ao luk,th,8.45,98.96
asheville,us,35.66,-82.59
novouzensk,ru,50.08,47.9
booue,ga,-0.76,11.82
kieta,pg,-1.18,159.28
ken caryl,us,39.06,-105.7
albanel,ca,50.2,-72.34
rumonge,bi,-4.32,28.78
marv dasht,ir,30.26,53.14
vitimskiy,ru,59.0,113.84
port shepstone,za,-36.93,39.29
umm kaddadah,sd,14.32,28.1
kuna,us,43.41,-116.45
port lavaca,us,28.62,-96.82
rundu,na,-17.94,18.34
mozarlandia,br,-14.71,-51.39
port macquarie,au,-33.79,159.12
benguela,ao,-13.29,12.61
la orilla,mx,17.18,-103.43
cuamba,mz,-15.45,37.83
kastron,gr,38.51,23.19
jaisalmer,in,26.24,70.6
sistranda,no,65.15,8.63
nicoya,cr,6.8,-87.33
chirongui,yt,-13.96,45.56
kuching,my,2.61,110.12
dyatkovo,ru,53.65,34.35
kolimvari,gr,35.97,23.53
keramoti,gr,40.88,24.7
upata,ve,7.77,-62.16
miandrivazo,mg,-17.45,43.5
lerwick,gb,60.76,-0.03
riverton,us,42.73,-107.77
bahia blanca,ar,-38.62,-62.38
teya,ru,63.47,91.98
gigmoto,ph,15.84,128.16
road town,vg,18.2,-64.49
sal rei,cv,15.79,-21.81
tutrakan,bg,44.0,26.65
lumphat,kh,13.34,106.28
idil,tr,36.94,41.83
tacuarembo,uy,-31.83,-55.4
serrana,br,-21.32,-47.48
huangzhai,cn,33.56,114.79
abu samrah,qa,24.61,50.03
aitape,pg,-1.58,143.0
mount darwin,zw,-16.31,31.75
dawson creek,ca,55.2,-120.41
clinton,us,35.11,-99.04
tambul,sd,16.22,34.3
milkovo,ru,54.3,160.45
kuala lipis,my,4.04,101.94
sayat,tm,37.93,63.23
kabanjahe,id,3.17,97.13
praya,id,-13.52,116.92
meiganga,cm,7.09,14.4
fallon,us,40.05,-118.26
saint augustine,us,29.92,-81.13
pousat,kh,12.7,104.07
newala,tz,-11.9,39.51
casian,ph,10.87,119.82
waingapu,id,-13.21,120.01
tomari,ru,48.08,141.44
pemberton,ca,51.3,-123.56
mildura,au,-34.24,141.4
georgiyevka,kz,43.31,74.48
marzuq,ly,24.22,18.84
griffith,au,-32.11,145.65
caxito,ao,-9.08,14.29
puerto madero,mx,13.14,-94.71
sol-iletsk,ru,50.6,55.47
shushenskoye,ru,53.4,91.81
shambu,et,9.35,37.15
svetlyy,ru,48.4,61.76
villanueva,co,5.07,-72.15
west bay,ky,19.76,-82.61
santa luzia,br,-7.42,-47.05
poltavka,ru,54.05,71.41
nuqui,co,5.63,-78.21
manicore,br,-6.81,-60.97
santa helena,br,-2.34,-45.49
ayr,au,-17.3,148.86
shestakovo,ru,55.47,104.05
coueron,fr,47.33,-1.81
silver city,us,33.19,-108.31
kasongo-lunda,cd,-5.73,16.49
canning,in,22.24,88.68
pinega,ru,65.04,42.98
kaffrine,sn,14.07,-15.62
camana,pe,-20.98,-76.35
satitoa,ws,-15.52,-169.85
bayonet point,us,28.41,-82.81
darnah,ly,33.82,23.21
verkhoyansk,ru,70.56,132.28
kiruna,se,68.12,20.75
asbe teferi,et,9.19,40.81
mahibadhoo,mv,4.39,64.96
sondrio,it,46.36,9.7
kontagora,ng,10.19,5.12
san rafael,ar,-36.21,-68.49
daltenganj,in,23.93,83.95
fujin,cn,47.73,131.77
launceston,au,-41.07,150.44
maun,bw,-19.69,23.71
gori,ge,42.32,44.13
singojuruh,id,-8.18,114.1
nokaneng,bw,-19.57,22.65
umm lajj,sa,25.88,38.0
svay rieng,kh,11.23,105.43
zhanakorgan,kz,43.39,67.46
shaoyang,cn,27.2,111.3
tunduru,tz,-10.95,36.55
novonikolsk,ru,43.76,131.76
deep river,ca,46.81,-76.98
dong hoi,vn,18.34,108.13
truckee,us,39.14,-120.38
deurne,nl,51.51,5.77
malwan,in,14.56,69.11
semporna,my,4.18,119.0
nosy varika,mg,-20.79,48.59
magadi,ke,-2.28,35.53
gornopravdinsk,ru,59.54,69.56
paracuru,br,3.94,-34.45
fort smith,us,34.92,-94.42
alexandria,eg,33.2,29.0
voi,ke,-3.5,38.9
conceicao das alagoas,br,-20.01,-48.64
pangody,ru,66.46,73.94
seymchan,ru,64.0,152.98
kondinskoye,ru,58.94,67.25
kumba,cm,4.98,9.2
kannod,in,22.62,76.74
starobaltachevo,ru,56.01,55.86
falam,mm,22.45,94.27
balkanabat,tm,38.5,52.86
visby,se,58.44,19.63
umba,ru,66.79,35.65
lotofaga,ws,-13.93,-171.78
malovat,ro,44.71,22.77
chyhyryn,ua,49.19,32.69
port hawkesbury,ca,43.42,-60.58
marang,my,5.37,104.33
villa rica,co,2.66,-77.2
mana,gf,10.24,-53.59
mogok,mm,23.17,96.1
olga,ru,42.34,136.11
quimper,fr,46.92,-4.85
lagoa santa,br,-19.57,-43.9
sosnogorsk,ru,64.14,53.92
namsos,no,64.51,11.59
giyani,za,-22.75,31.6
jacareacanga,br,-6.52,-56.05
elizabeth city,us,34.89,-74.62
kempele,fi,64.83,25.26
smithers,ca,57.52,-126.26
kulevcha,ua,45.54,30.22
canchungo,gw,12.01,-15.8
puerto baquerizo moreno,ec,-1.85,-90.08
minbu,mm,19.99,94.52
diapaga,bf,11.56,1.81
storsteinnes,no,68.51,19.19
cam ranh,vn,11.29,111.82
waddan,ly,27.85,17.62
magdalena,ph,9.96,121.84
chino valley,us,35.28,-112.44
puerto asis,co,0.41,-76.31
kasaragod,in,12.16,74.3
kataysk,ru,56.02,62.36
rio bueno,cl,-40.62,-72.18
lere,ng,10.25,8.35
morro bay,us,34.27,-122.86
teknaf,bd,20.27,90.48
kuantan,my,3.9,103.22
nanae,jp,42.12,140.39
eruwa,ng,7.8,3.26
ouargaye,bf,11.54,0.5
bagdarin,ru,54.22,115.05
lincoln,nz,-48.66,176.21
bandar,id,2.1,99.76
dir,pk,34.96,71.74
mentok,id,-2.72,105.56
lesozavodsk,ru,45.39,133.07
jishou,cn,28.08,109.9
tygda,ru,52.79,125.93
soyo,ao,-6.72,10.61
tsabong,bw,-27.09,22.15
volnovakha,ua,47.68,37.68
osakarovka,kz,50.63,72.34
tezu,in,32.74,96.75
jerusalem,il,31.6,35.28
belaya gora,ru,68.4,148.55
nador,ma,31.7,-1.47
celestun,mx,21.27,-90.81
provost,ca,51.24,-110.6
motygino,ru,57.86,95.32
dergachi,ru,51.24,48.54
balagansk,ru,53.66,103.43
picos,br,-7.17,-41.34
uruzgan,af,33.15,66.43
petatlan,mx,16.43,-101.54
khipro,pk,26.36,69.99
ribeirao branco,br,-24.31,-49.01
payo,ph,16.92,127.54
wajid,so,5.44,42.71
bitung,id,1.66,125.79
pangkalanbuun,id,-3.58,111.98
dicabisagan,ph,17.84,125.56
pyaozerskiy,ru,66.24,31.66
terrenate,mx,19.55,-97.87
turinsk,ru,58.49,63.55
awjilah,ly,25.33,20.25
eregli,tr,42.28,30.8
preobrazheniye,ru,42.01,134.54
lethem,gy,4.12,-59.38
bayeux,fr,49.77,-0.84
felipe carrillo puerto,mx,19.19,-87.3
kuala terengganu,my,6.61,104.0
rust,at,47.81,16.77
halden,no,58.9,11.5
eatonton,us,33.59,-82.9
cam pha,vn,21.11,107.64
nsanje,mw,-16.9,34.99
namuac,ph,18.88,121.24
latung,ph,3.5,122.35
nogales,mx,31.21,-111.3
lyndon,us,44.5,-72.09
agutaya,ph,11.19,120.85
mocuba,mz,-16.32,38.64
elesbao veloso,br,-6.23,-42.26
rio grande,br,-34.07,-48.4
edd,er,14.97,40.73
chandauli,in,25.47,83.28
mosalsk,ru,54.86,34.84
tawkar,sd,18.12,37.4
el tigre,ve,7.85,-64.77
nedjo,et,9.98,36.28
ust-koksa,ru,49.02,85.97
cooma,au,-36.83,149.79
salinopolis,br,0.48,-46.6
cassilandia,br,-19.82,-52.2
kaoma,zm,-14.56,24.95
mogocha,ru,53.62,119.81
chebenki,ru,52.12,55.83
malindi,ke,-4.28,42.18
aquiraz,br,0.87,-35.13
rorvik,no,66.38,10.8
grootfontein,na,-20.14,18.29
zalalovo,hu,46.92,16.56
timisesti,ro,47.24,26.57
tabriz,ir,37.87,46.5
troitsk,ru,54.01,61.19
tazmalt,dz,35.42,5.29
nortelandia,br,-13.0,-57.03
bhowali,in,29.38,79.55
thinadhoo,mv,0.83,65.87
isla mujeres,mx,24.38,-87.14
klaeng,th,13.0,101.92
blackpool,gb,53.73,-3.07
ilovka,ru,50.72,38.64
santa maria da boa vista,br,-8.74,-39.74
alibag,in,18.23,70.64
kargasok,ru,58.22,80.76
tall kayf,iq,36.46,42.99
adana,tr,36.56,35.29
formosa do rio preto,br,-11.2,-45.2
yeletskiy,ru,66.93,63.88
bushehr,ir,28.55,49.52
suchil,mx,23.62,-103.94
kalangala,ug,-0.71,32.55
kandava,lv,57.11,22.88
acopiara,br,-6.11,-39.59
sotouboua,tg,8.35,0.55
kathmandu,np,28.21,85.36
betsiamites,ca,49.54,-68.87
treinta y tres,uy,-33.56,-54.77
camara de lobos,pt,31.43,-17.12
pagudpud,ph,18.54,120.86
punta de piedra,hn,16.35,-85.12
chara,ru,59.43,119.45
porrentruy,ch,47.59,7.18
fairview,ca,57.16,-118.16
daloa,ci,6.95,-6.43
sadiqabad,pk,28.29,69.95
huangcun,cn,39.5,116.25
kalevala,ru,65.21,31.36
sompeta,in,16.87,86.6
jilikul,tj,37.39,68.54
nurota,uz,42.56,64.75
doctor pedro p. pena,py,-22.15,-62.65
itaqui,br,-28.54,-56.62
lakes entrance,au,-37.47,148.47
bognor regis,gb,50.45,-0.7
severomuysk,ru,56.11,113.21
kattivakkam,in,12.64,83.81
rancho palos verdes,us,30.5,-120.48
norrkoping,se,58.37,16.35
corn island,ni,11.29,-82.04
oristano,it,40.04,8.63
qibili,tn,33.74,8.65
zelenoborsk,ru,61.15,64.2
estelle,us,26.19,-88.05
yetkul,ru,54.84,61.69
concepcion del oro,mx,24.58,-101.64
chifeng,cn,44.68,117.19
ruteng,id,-8.3,119.65
grants pass,us,42.36,-123.2
guacimo,cr,10.07,-83.68
san carlos,bo,-17.17,-64.38
bone,id,-3.81,121.23
naro moru,ke,-0.2,36.83
salto,br,-23.17,-47.4
polis,cy,35.11,31.56
erzin,ru,49.71,94.84
rancho cucamonga,us,34.14,-117.61
san carlos del zulia,ve,8.76,-72.02
pontianak,id,-1.28,109.5
carahue,cl,-39.06,-73.56
daxian,cn,30.59,107.56
bakel,sn,15.11,-12.04
kansanshi,zm,-11.96,25.99
bani,do,17.38,-70.41
mbuji-mayi,cd,-6.23,23.86
barentu,er,15.5,37.41
nerchinskiy zavod,ru,51.97,120.02
snezhnogorsk,ru,70.08,32.46
kurush,ru,41.15,48.03
chilia veche,ro,45.37,29.42
barabai,id,-2.2,116.1
gaoual,gn,11.74,-13.56
kaliua,tz,-5.26,31.44
boulder,us,39.97,-105.87
halmstad,se,57.01,13.26
ada,us,34.64,-95.94
santa maria del oro,mx,25.71,-105.29
kaohsiung,tw,22.54,119.32
mbanza-ngungu,cd,-5.42,14.24
esso,ru,56.69,158.35
tromso,no,73.81,17.49
znamenskoye,ru,57.56,73.25
dolores,ar,-36.23,-57.05
sungaipenuh,id,-3.78,98.79
haileybury,ca,47.44,-79.97
abu dhabi,ae,21.94,52.66
glace bay,ca,46.73,-59.65
salaverry,pe,-8.68,-79.2
sikasso,ml,11.74,-6.11
kamina,cd,-8.27,25.08
myitkyina,mm,27.18,98.4
south hill,us,46.91,-122.16
north branch,us,46.12,-93.08
agua prieta,mx,31.24,-109.63
mopti,ml,14.21,-4.28
ban phai,th,16.08,102.59
pilar,ph,10.13,129.02
uchiza,pe,-8.55,-76.72
ngukurr,au,-15.85,136.12
villapinzon,co,5.21,-73.66
muravlenko,ru,64.25,74.3
uyutne,ua,45.42,32.98
jose de freitas,br,-4.9,-42.72
tsaratanana,mg,-15.96,48.07
minatitlan,mx,17.85,-94.41
benicarlo,es,40.64,0.3
kandry,ru,54.64,54.15
nantucket,us,39.84,-68.74
yiyang,cn,28.53,112.06
orange cove,us,37.52,-118.83
pedernales,do,17.97,-71.85
sri aman,my,0.12,111.35
goulburn,au,-34.65,149.72
eden,us,36.45,-79.96
acurenam,gq,0.79,11.0
asilah,ma,35.39,-6.25
boguchany,ru,59.76,96.97
mbabane,sz,-26.21,31.08
bolshoye sorokino,ru,56.66,69.6
bolonchen,mx,18.98,-90.1
lashio,mm,23.93,99.04
lithgow,au,-33.93,150.21
tracy,us,37.62,-121.45
